[
  {
    "name": "Mariano Boedo",
    "full_address": "Formosa Province",
    "latitude": -26.1099044,
    "longitude": -58.4865684
  },
  {
    "name": "Werning Combustible",
    "full_address": "RUTA NACIONAL 81, Juan Domingo Per\u00f3n Y, P3634 Laguna Yema, Formosa",
    "latitude": -24.2497478,
    "longitude": -61.2423689
  },
  {
    "name": "El Espinillo",
    "full_address": "Formosa Province",
    "latitude": -24.9803469,
    "longitude": -58.5518471
  },
  {
    "name": "AXION energy",
    "full_address": "Carlos Pellegrini 705, P3606 Piran\u00e9, Formosa",
    "latitude": -25.7399741,
    "longitude": -59.1085302
  },
  {
    "name": "AXION energy",
    "full_address": "entre Lopez y Planes y Saavedra, Ruta 3, P3606 Piran\u00e9, Formosa",
    "latitude": -25.7411159,
    "longitude": -59.1011443
  },
  {
    "name": "Farmatyb pirane",
    "full_address": "Av. Pringles 385, P3606 Piran\u00e9, Formosa",
    "latitude": -25.7331336,
    "longitude": -59.1015123
  },
  {
    "name": "Villa Escolar",
    "full_address": "Formosa Province",
    "latitude": -26.6235421,
    "longitude": -58.6705773
  },
  {
    "name": "M-M Petrol S.A.S",
    "full_address": "San Mart\u00edn 2, Formosa Province",
    "latitude": -24.4349281,
    "longitude": -59.6573881
  },
  {
    "name": "Formosa",
    "full_address": "Formosa Province",
    "latitude": -26.1857768,
    "longitude": -58.1755669
  },
  {
    "name": "Shell Formosa",
    "full_address": "Av. Dr. Nestor Kirchner 4315, Formosa",
    "latitude": -26.188508,
    "longitude": -58.2143329
  },
  {
    "name": "Shell La Estaci\u00f3n S.A.",
    "full_address": "RN11 Km 1164, P3600 Formosa",
    "latitude": -26.2363563,
    "longitude": -58.247186
  },
  {
    "name": "ES-GAS",
    "full_address": "Formosa, Formosa Province",
    "latitude": -26.1895435,
    "longitude": -58.2174603
  },
  {
    "name": "YPF",
    "full_address": "Esq. Segunda, Barrio Circuito 5, Av. Dr. Laureano Maradona 1268, P3600 Formosa",
    "latitude": -26.1506625,
    "longitude": -58.1583047
  },
  {
    "name": "Parque Gas",
    "full_address": "Av. Arturo Frondizi 3740, Formosa",
    "latitude": -26.2037585,
    "longitude": -58.2017757
  },
  {
    "name": "Shell",
    "full_address": "9 de Julio, Juan Jos\u00e9 Silva, 3600 Formosa",
    "latitude": -26.1801028,
    "longitude": -58.175978
  },
  {
    "name": "Antho Servicios S.R.L.",
    "full_address": "RN11 Km. 1183,6, Formosa",
    "latitude": -26.1196619,
    "longitude": -58.2204542
  },
  {
    "name": "LEZCANO GAS S.R.L.",
    "full_address": "Santos, Marighetti 296, P3600MRF Formosa",
    "latitude": -26.1585082,
    "longitude": -58.1783137
  },
  {
    "name": "Totalgaz",
    "full_address": "Marighetti 296, P3600MRF Formosa",
    "latitude": -26.1582301,
    "longitude": -58.1765888
  },
  {
    "name": "Wenci Heladeria",
    "full_address": "RN11 km 1162,3, 3600 Formosa",
    "latitude": -26.2550611,
    "longitude": -58.2574965
  },
  {
    "name": "Diario El Comercial",
    "full_address": "Hip\u00f3lito Yrigoyen 58, P3600 Formosa",
    "latitude": -26.1854391,
    "longitude": -58.1634823
  },
  {
    "name": "B M Combustibles",
    "full_address": "Las Lomitas, Formosa Province",
    "latitude": -24.7034499,
    "longitude": -60.5888442
  },
  {
    "name": "Gasolinera!",
    "full_address": "Fort\u00edn Cabo 1\u00b0 Lugones, Formosa Province",
    "latitude": -24.2937744,
    "longitude": -59.8295682
  },
  {
    "name": "Gomeria Y Gasolineria",
    "full_address": "Fort\u00edn Cabo 1\u00b0 Lugones, Formosa Province",
    "latitude": -24.29195,
    "longitude": -59.8296101
  },
  {
    "name": "Service Station Melazqui",
    "full_address": "Estanislao del Campo, Formosa Province",
    "latitude": -25.048998,
    "longitude": -60.0906551
  },
  {
    "name": "Tte. Brown",
    "full_address": "Formosa Province",
    "latitude": -24.8023675,
    "longitude": -60.4567202
  },
  {
    "name": "Palma Sola",
    "full_address": "Formosa Province",
    "latitude": -25.2498104,
    "longitude": -57.9974208
  },
  {
    "name": "YPF - Bigatti Combustibles",
    "full_address": "Av. Gendarmer\u00eda Nacional 915, P3600 Formosa",
    "latitude": -26.1562761,
    "longitude": -58.18634
  },
  {
    "name": "Estaci\u00f3n de Servicio",
    "full_address": "2299, Sta. Fe 2201, Clorinda, Formosa",
    "latitude": -25.2805558,
    "longitude": -57.7327298
  },
  {
    "name": "Shell",
    "full_address": "Juan Bautista Alberdi, RN11, 3610 Clorinda",
    "latitude": -25.2888247,
    "longitude": -57.7239811
  },
  {
    "name": "AXION energy",
    "full_address": "Av. Tucum\u00e1n 165, P3610 Clorinda, Formosa",
    "latitude": -25.2870971,
    "longitude": -57.7233353
  },
  {
    "name": "Baldus Service Station",
    "full_address": "RN86, P3613 Laguna Blanca, Formosa",
    "latitude": -25.1365803,
    "longitude": -58.2426254
  },
  {
    "name": "YPF",
    "full_address": "RUTA NACIONAL 86 KM (Descendente) Y AV. 25 DE MAYO Laguna Blanca, Formosa",
    "latitude": -25.136345,
    "longitude": -58.244713
  },
  {
    "name": "Service Lux",
    "full_address": "QPWV+8R, Laguna Blanca, Formosa",
    "latitude": -25.2042279,
    "longitude": -58.2553849
  },
  {
    "name": "Comisaria de Laguna Blanca",
    "full_address": "P3613 Laguna Blanca, Formosa Province",
    "latitude": -25.1310647,
    "longitude": -58.246591
  },
  {
    "name": "JR Parts",
    "full_address": "Belgrano y Jose Hernandez s/n, P3613 Laguna Blanca, Formosa",
    "latitude": -25.1289218,
    "longitude": -58.249278
  },
  {
    "name": "YPF",
    "full_address": "3613, Laguna Blanca, Formosa",
    "latitude": -25.1345762,
    "longitude": -58.2476363
  },
  {
    "name": "KIOSCO LA ESQUINA",
    "full_address": "3613, Laguna Blanca, Formosa",
    "latitude": -25.1375901,
    "longitude": -58.2385467
  },
  {
    "name": "Combustibles San Pedro S.R.L.",
    "full_address": "Av. Gonz\u00e1lez Lelong 1705, P3600 DKR, Formosa",
    "latitude": -26.1799138,
    "longitude": -58.1866692
  },
  {
    "name": "El Surtidor S.a.",
    "full_address": "17 de Octubre 3600, P3600 Formosa",
    "latitude": -26.1987856,
    "longitude": -58.1753633
  },
  {
    "name": "Complejo Gasolina Club",
    "full_address": "Av. Dr. Luis Gutniski 2227, P3600 CLJ, Formosa",
    "latitude": -26.1903918,
    "longitude": -58.1897542
  }
]
